[
  {
    "id": "1",
    "name": "Phoenix Market City Charging Station",
    "address": "Phoenix Market City, Lower Parel, Mumbai",
    "city": "Mumbai",
    "state": "Maharashtra",
    "latitude": 19.0760,
    "longitude": 72.8777,
    "operator": "Tata Power",
    "connector_type": "Type 2",
    "power_output": "22 kW",
    "status": "Operational",
    "last_updated": "2024-01-15"
  },
  {
    "id": "2",
    "name": "DLF Cyber City Charging Hub",
    "address": "DLF Cyber City, Gurgaon",
    "city": "Gurgaon",
    "state": "Haryana",
    "latitude": 28.4595,
    "longitude": 77.0266,
    "operator": "EESL",
    "connector_type": "CCS",
    "power_output": "50 kW",
    "status": "Operational",
    "last_updated": "2024-01-14"
  },
  {
    "id": "3",
    "name": "Khan Market EV Station",
    "address": "Khan Market, New Delhi",
    "city": "Delhi",
    "state": "Delhi",
    "latitude": 28.6139,
    "longitude": 77.2090,
    "operator": "NDMC",
    "connector_type": "Type 2",
    "power_output": "7.4 kW",
    "status": "Operational",
    "last_updated": "2024-01-13"
  },
  {
    "id": "4",
    "name": "Mumbai-Pune Expressway Station",
    "address": "Mumbai-Pune Expressway",
    "city": "Pune",
    "state": "Maharashtra",
    "latitude": 18.5204,
    "longitude": 73.8567,
    "operator": "MSRDC",
    "connector_type": "CCS",
    "power_output": "60 kW",
    "status": "Operational",
    "last_updated": "2024-01-12"
  },
  {
    "id": "5",
    "name": "Electronic City Charging Hub",
    "address": "Electronic City, Bangalore",
    "city": "Bangalore",
    "state": "Karnataka",
    "latitude": 12.9716,
    "longitude": 77.5946,
    "operator": "BESCOM",
    "connector_type": "Type 2",
    "power_output": "22 kW",
    "status": "Operational",
    "last_updated": "2024-01-11"
  },
  {
    "id": "6",
    "name": "Kempegowda Airport Station",
    "address": "Kempegowda International Airport",
    "city": "Bangalore",
    "state": "Karnataka",
    "latitude": 13.1986,
    "longitude": 77.7066,
    "operator": "BIAL",
    "connector_type": "CCS",
    "power_output": "50 kW",
    "status": "Operational",
    "last_updated": "2024-01-10"
  },
  {
    "id": "7",
    "name": "Connaught Place Charging Station",
    "address": "Connaught Place, New Delhi",
    "city": "Delhi",
    "state": "Delhi",
    "latitude": 28.6289,
    "longitude": 77.2065,
    "operator": "NDMC",
    "connector_type": "Type 2",
    "power_output": "7.4 kW",
    "status": "Operational",
    "last_updated": "2024-01-09"
  },
  {
    "id": "8",
    "name": "Bandra Kurla Complex Station",
    "address": "Bandra Kurla Complex, Mumbai",
    "city": "Mumbai",
    "state": "Maharashtra",
    "latitude": 19.0596,
    "longitude": 72.8295,
    "operator": "Tata Power",
    "connector_type": "CCS",
    "power_output": "50 kW",
    "status": "Operational",
    "last_updated": "2024-01-08"
  },
  {
    "id": "9",
    "name": "Cyberabad Hub",
    "address": "HITEC City, Hyderabad",
    "city": "Hyderabad",
    "state": "Telangana",
    "latitude": 17.3850,
    "longitude": 78.4867,
    "operator": "TSREDCO",
    "connector_type": "Type 2",
    "power_output": "22 kW",
    "status": "Operational",
    "last_updated": "2024-01-07"
  },
  {
    "id": "10",
    "name": "Chennai Central Station",
    "address": "Chennai Central Railway Station",
    "city": "Chennai",
    "state": "Tamil Nadu",
    "latitude": 13.0827,
    "longitude": 80.2707,
    "operator": "TANGEDCO",
    "connector_type": "CCS",
    "power_output": "50 kW",
    "status": "Operational",
    "last_updated": "2024-01-06"
  },
  {
    "id": "11",
    "name": "Salt Lake City Hub",
    "address": "Salt Lake City, Kolkata",
    "city": "Kolkata",
    "state": "West Bengal",
    "latitude": 22.5726,
    "longitude": 88.3639,
    "operator": "WBSEDCL",
    "connector_type": "Type 2",
    "power_output": "22 kW",
    "status": "Operational",
    "last_updated": "2024-01-05"
  },
  {
    "id": "12",
    "name": "Ahmedabad Central Station",
    "address": "Ahmedabad Central Railway Station",
    "city": "Ahmedabad",
    "state": "Gujarat",
    "latitude": 23.0225,
    "longitude": 72.5714,
    "operator": "GUVNL",
    "connector_type": "CCS",
    "power_output": "50 kW",
    "status": "Operational",
    "last_updated": "2024-01-04"
  },
  {
    "id": "13",
    "name": "Indore Smart City Hub",
    "address": "Indore Smart City, Madhya Pradesh",
    "city": "Indore",
    "state": "Madhya Pradesh",
    "latitude": 22.7196,
    "longitude": 75.8577,
    "operator": "MPSEB",
    "connector_type": "Type 2",
    "power_output": "22 kW",
    "status": "Operational",
    "last_updated": "2024-01-03"
  },
  {
    "id": "14",
    "name": "Jaipur Pink City Station",
    "address": "Pink City, Jaipur",
    "city": "Jaipur",
    "state": "Rajasthan",
    "latitude": 26.9124,
    "longitude": 75.7873,
    "operator": "RVPN",
    "connector_type": "CCS",
    "power_output": "50 kW",
    "status": "Operational",
    "last_updated": "2024-01-02"
  },
  {
    "id": "15",
    "name": "Lucknow Central Hub",
    "address": "Hazratganj, Lucknow",
    "city": "Lucknow",
    "state": "Uttar Pradesh",
    "latitude": 26.8467,
    "longitude": 80.9462,
    "operator": "UPPCL",
    "connector_type": "Type 2",
    "power_output": "22 kW",
    "status": "Operational",
    "last_updated": "2024-01-01"
  }
]
